<?xml version="1.0" encoding="UTF-8"?>
<Vehicle>
<VehicleType>Bus</VehicleType>
<VehicleName>16-F</VehicleName>
<StartPoint>
<StartPointName>Nasir Colony</StartPointName>
<StartPointLat>24.825333</StartPointLat>
<StartPointLong>67.126143</StartPointLong>
</StartPoint>
<BusStop>
<BusStopName>Korangi No 4</BusStopName>
<BusStopLat>24.836222</BusStopLat>
<BusStopLong>67.073088</BusStopLong>
</BusStop>
<BusStop>
<BusStopName>Korangi No 6</BusStopName>
<BusStopLat>24.820252</BusStopLat>
<BusStopLong>67.135961</BusStopLong>
</BusStop>
<BusStop>
<BusStopName>Landhi No 1</BusStopName>
<BusStopLat>24.832315</BusStopLat>
<BusStopLong>67.227411</BusStopLong>
</BusStop>
<BusStop>
<BusStopName>Malir</BusStopName>
<BusStopLat>24.902885</BusStopLat>
<BusStopLong>67.197579</BusStopLong>
</BusStop>
<BusStop>
<BusStopName>Drigh Road</BusStopName>
<BusStopLat>24.884633</BusStopLat>
<BusStopLong>67.129122</BusStopLong>
</BusStop>
<BusStop>
<BusStopName>Karsaz</BusStopName>
<BusStopLat>24.889054</BusStopLat>
<BusStopLong>67.100078</BusStopLong>
</BusStop>
<BusStop>
<BusStopName>National Stadium</BusStopName>
<BusStopLat>24.89421</BusStopLat>
<BusStopLong>67.088063</BusStopLong>
</BusStop>
<BusStop>
<BusStopName>Civic Centre</BusStopName>
<BusStopLat>24.901118</BusStopLat>
<BusStopLong>67.072711</BusStopLong>
</BusStop>
<BusStop>
<BusStopName>Liaquatabad No 10</BusStopName>
<BusStopLat>24.863532</BusStopLat>
<BusStopLong>67.091723</BusStopLong>
</BusStop>
<BusStop>
<BusStopName>Karimabad</BusStopName>
<BusStopLat>24.9217</BusStopLat>
<BusStopLong>67.05835</BusStopLong>
</BusStop>
<BusStop>
<BusStopName>Aisha Manzil</BusStopName>
<BusStopLat>24.92752</BusStopLat>
<BusStopLong>67.064194</BusStopLong>
</BusStop>
<BusStop>
<BusStopName>Water Pump</BusStopName>
<BusStopLat>24.933841</BusStopLat>
<BusStopLong>66.956125</BusStopLong>
</BusStop>
<BusStop>
<BusStopName>Sohrab Goth</BusStopName>
<BusStopLat>24.943902</BusStopLat>
<BusStopLong>67.084417</BusStopLong>
</BusStop>
<BusStop>
<BusStopName>Power House</BusStopName>
<BusStopLat>24.986827</BusStopLat>
<BusStopLong>67.065875</BusStopLong>
</BusStop>
<EndPoint>
<EndPointName>Godhra Camp</EndPointName>
<EndPointLat>24.861462</EndPointLat>
<EndPointLong>67.009939</EndPointLong>
</EndPoint>
</Vehicle>