<?xml version="1.0" encoding="UTF-8"?>
<Vehicle>
<VehicleType>Bus</VehicleType>
<VehicleName>8-A</VehicleName>
<StartPoint>
<StartPointName>P.I.B Colony</StartPointName>
<StartPointLat>24.894681</StartPointLat>
<StartPointLong>67.056885</StartPointLong>
</StartPoint>
<BusStop>
<BusStopName>Hyderabad Colony</BusStopName>
<BusStopLat>24.88551</BusStopLat>
<BusStopLong>67.054278</BusStopLong>
</BusStop>
<BusStop>
<BusStopName>Gurumandir</BusStopName>
<BusStopLat>24.880809</BusStopLat>
<BusStopLong>67.039467</BusStopLong>
</BusStop>
<BusStop>
<BusStopName>M.A Jinnah Road</BusStopName>
<BusStopLat>24.860787</BusStopLat>
<BusStopLong>67.017802</BusStopLong>
</BusStop>
<BusStop>
<BusStopName>Frere Street</BusStopName>
<BusStopLat>24.849957</BusStopLat>
<BusStopLong>67.035598</BusStopLong>
</BusStop>
<BusStop>
<BusStopName>Preedy Street</BusStopName>
<BusStopLat>24.860695</BusStopLat>
<BusStopLong>67.027404</BusStopLong>
</BusStop>
<BusStop>
<BusStopName>Frere Road</BusStopName>
<BusStopLat>24.856559</BusStopLat>
<BusStopLong>67.015851</BusStopLong>
</BusStop>
<BusStop>
<BusStopName>Ingle Road</BusStopName>
<BusStopLat>24.851628</BusStopLat>
<BusStopLong>67.019794</BusStopLong>
</BusStop>
<BusStop>
<BusStopName>Mcleod Road</BusStopName>
<BusStopLat>24.861462</BusStopLat>
<BusStopLong>67.009939</BusStopLong>
</BusStop>
<BusStop>
<BusStopName>Napier Road</BusStopName>
<BusStopLat>24.91914</BusStopLat>
<BusStopLong>66.962109</BusStopLong>
</BusStop>
<EndPoint>
<EndPointName>Keamari</EndPointName>
<EndPointLat>24.82269</EndPointLat>
<EndPointLong>66.983908</EndPointLong>
</EndPoint>

</Vehicle>