<?xml version="1.0" encoding="UTF-8"?>
<Vehicle>
<VehicleType>Bus</VehicleType>
<VehicleName>17-P</VehicleName>
<StartPoint>
<StartPointName>Landhi-89</StartPointName>
<StartPointLat>24.823347</StartPointLat>
<StartPointLong>67.182376</StartPointLong>
</StartPoint>
<BusStop>
<BusStopName>Landhi No 6</BusStopName>
<BusStopLat>24.830001</BusStopLat>
<BusStopLong>67.226682</BusStopLong>
</BusStop>
<BusStop>
<BusStopName>Korangi No 5</BusStopName>
<BusStopLat>24.883144</BusStopLat>
<BusStopLong>67.161859</BusStopLong>
</BusStop>
<BusStop>
<BusStopName>Korangi No 4</BusStopName>
<BusStopLat>24.836222</BusStopLat>
<BusStopLong>67.073088</BusStopLong>
</BusStop>
<BusStop>
<BusStopName>Korangi No 3</BusStopName>
<BusStopLat>24.846946</BusStopLat>
<BusStopLong>67.143106</BusStopLong>
</BusStop>
<BusStop>
<BusStopName>Korangi No 2</BusStopName>
<BusStopLat>24.846659</BusStopLat>
<BusStopLong>67.143085</BusStopLong>
</BusStop>
<BusStop>
<BusStopName>Korangi No 1</BusStopName>
<BusStopLat>24.841243</BusStopLat>
<BusStopLong>67.155245</BusStopLong>
</BusStop>
<BusStop>
<BusStopName>Korangi Crossing</BusStopName>
<BusStopLat>24.823403</BusStopLat>
<BusStopLong>67.093206</BusStopLong>
</BusStop>
<BusStop>
<BusStopName>Qayyumabad</BusStopName>
<BusStopLat>24.825724</BusStopLat>
<BusStopLong>67.080715</BusStopLong>
</BusStop>
<BusStop>
<BusStopName>Defence Mor</BusStopName>
<BusStopLat>24.861462</BusStopLat>
<BusStopLong>67.009939</BusStopLong>
</BusStop>
<BusStop>
<BusStopName>Sunset Club</BusStopName>
<BusStopLat>24.861462</BusStopLat>
<BusStopLong>67.009939</BusStopLong>
</BusStop>
<BusStop>
<BusStopName>Punjab Chowrangi</BusStopName>
<BusStopLat>24.827849</BusStopLat>
<BusStopLong>67.039131</BusStopLong>
</BusStop>
<BusStop>
<BusStopName>Dehli Colony</BusStopName>
<BusStopLat>24.905429</BusStopLat>
<BusStopLong>67.107874</BusStopLong>
</BusStop>
<BusStop>
<BusStopName>Cantt Station</BusStopName>
<BusStopLat>24.951982</BusStopLat>
<BusStopLong>67.226224</BusStopLong>
</BusStop>
<BusStop>
<BusStopName>Jinnah Park</BusStopName>
<BusStopLat>24.944753</BusStopLat>
<BusStopLong>67.205128</BusStopLong>
</BusStop>
<BusStop>
<BusStopName>Metropole</BusStopName>
<BusStopLat>24.861462</BusStopLat>
<BusStopLong>67.009939</BusStopLong>
</BusStop>
<BusStop>
<BusStopName>Rta Office</BusStopName>
<BusStopLat>24.861462</BusStopLat>
<BusStopLong>67.009939</BusStopLong>
</BusStop>
<BusStop>
<BusStopName>Deen Muhammad Wafai Road</BusStopName>
<BusStopLat>24.85362</BusStopLat>
<BusStopLong>67.026103</BusStopLong>
</BusStop>
<BusStop>
<BusStopName>Light House</BusStopName>
<BusStopLat>24.826387</BusStopLat>
<BusStopLong>66.66448</BusStopLong>
</BusStop>
<EndPoint>
<EndPointName>Tower</EndPointName>
<EndPointLat>24.876961</EndPointLat>
<EndPointLong>67.059828</EndPointLong>
</EndPoint>
</Vehicle>