<?xml version="1.0" encoding="UTF-8"?>
<Vehicle>
<VehicleType>Bus</VehicleType>
<VehicleName>53-A</VehicleName>
<StartPoint>
<StartPointName>Lee Market</StartPointName>
<StartPointLat>24.867994</StartPointLat>
<StartPointLong>67.01739</StartPointLong>
</StartPoint>
<BusStop>
<BusStopName>Manghopir Road</BusStopName>
<BusStopLat>24.946496</BusStopLat>
<BusStopLong>67.021816</BusStopLong>
</BusStop>
<BusStop>
<BusStopName>Banaras Colony</BusStopName>
<BusStopLat>24.928098</BusStopLat>
<BusStopLong>66.979704</BusStopLong>
</BusStop>
<BusStop>
<BusStopName>New Karahci Saindad Goth</BusStopName>
<BusStopLat>24.861462</BusStopLat>
<BusStopLong>67.009939</BusStopLong>
</BusStop>
<BusStop>
<BusStopName>Razi B.B Member Goth</BusStopName>
<BusStopLat>24.861462</BusStopLat>
<BusStopLong>67.009939</BusStopLong>
</BusStop>
<BusStop>
<BusStopName>Angara Goth</BusStopName>
<BusStopLat>24.861462</BusStopLat>
<BusStopLong>67.009939</BusStopLong>
</BusStop>
<BusStop>
<BusStopName>Geram-Ka-Goth</BusStopName>
<BusStopLat>24.861462</BusStopLat>
<BusStopLong>67.009939</BusStopLong>
</BusStop>
<BusStop>
<BusStopName>New Kenker</BusStopName>
<BusStopLat>24.861462</BusStopLat>
<BusStopLong>67.009939</BusStopLong>
</BusStop>
<EndPoint>
<EndPointName>Gadap Goth</EndPointName>
<EndPointLat>25.069028</EndPointLat>
<EndPointLong>67.244684</EndPointLong>
</EndPoint>
</Vehicle>