<?xml version="1.0" encoding="UTF-8"?>
<Vehicle>
<VehicleType>Bus</VehicleType>
<VehicleName>1-L</VehicleName>
<StartPoint>
<StartPointName>Raees Amrohi Colony</StartPointName>
<StartPointLat>24.961747</StartPointLat>
<StartPointLong>66.974228</StartPointLong>
</StartPoint>
<BusStop>
<BusStopName>Islam Chowk</BusStopName>
<BusStopLat>24.955202</BusStopLat>
<BusStopLong>66.99015</BusStopLong>
</BusStop>
<BusStop>
<BusStopName>Nishan-e-Hyder Chowk</BusStopName>
<BusStopLat>24.861462</BusStopLat>
<BusStopLong>67.009939</BusStopLong>
</BusStop>
<BusStop>
<BusStopName>Orangi No 5</BusStopName>
<BusStopLat>24.975271</BusStopLat>
<BusStopLong>66.986496</BusStopLong>
</BusStop>
<BusStop>
<BusStopName>Metro Bamarag</BusStopName>
<BusStopLat>24.861462</BusStopLat>
<BusStopLong>67.009939</BusStopLong>
</BusStop>
<BusStop>
<BusStopName>Habib Bank</BusStopName>
<BusStopLat>24.85</BusStopLat>
<BusStopLong>67</BusStopLong>
</BusStop>
<BusStop>
<BusStopName>Bara Board</BusStopName>
<BusStopLat>24.861462</BusStopLat>
<BusStopLong>67.009939</BusStopLong>
</BusStop>
<BusStop>
<BusStopName>Bismillah Hotel</BusStopName>
<BusStopLat>24.896655</BusStopLat>
<BusStopLong>67.019667</BusStopLong>
</BusStop>
<BusStop>
<BusStopName>Garden</BusStopName>
<BusStopLat>24.8804942</BusStopLat>
<BusStopLong>67.0199892</BusStopLong>
</BusStop>
<BusStop>
<BusStopName>Saddar</BusStopName>
<BusStopLat>24.853185</BusStopLat>
<BusStopLong>67.016673</BusStopLong>
</BusStop>
<BusStop>
<BusStopName>Jinnah Hospital</BusStopName>
<BusStopLat>24.887155</BusStopLat>
<BusStopLong>67.029785</BusStopLong>
</BusStop>
<BusStop>
<BusStopName>Akhter Colony</BusStopName>
<BusStopLat>24.839346</BusStopLat>
<BusStopLong>67.074013</BusStopLong>
</BusStop>
<BusStop>
<BusStopName>Qayyumabad</BusStopName>
<BusStopLat>24.825724</BusStopLat>
<BusStopLong>67.080715</BusStopLong>
</BusStop>
<BusStop>
<BusStopName>Korangi Industrial Area</BusStopName>
<BusStopLat>24.849999</BusStopLat>
<BusStopLong>67.135825</BusStopLong>
</BusStop>
<EndPoint>
<EndPointName>Sharifabad</EndPointName>
<EndPointLat>24.910997</EndPointLat>
<EndPointLong>67.053906</EndPointLong>
</EndPoint>

</Vehicle>