<?xml version="1.0" encoding="UTF-8"?>
<Vehicle>
<VehicleType>Bus</VehicleType>
<VehicleName>1-E</VehicleName>
<StartPoint>
<StartPointName>Manzoor Colony</StartPointName>
<StartPointLat>24.850248</StartPointLat>
<StartPointLong>67.085183</StartPointLong>
</StartPoint>
<BusStop>
<BusStopName>Bismillah Pul</BusStopName>
<BusStopLat>24.861462</BusStopLat>
<BusStopLong>67.009939</BusStopLong>
</BusStop>
<BusStop>
<BusStopName>Mehmoodabad No 6</BusStopName>
<BusStopLat>24.854437</BusStopLat>
<BusStopLong>67.077292</BusStopLong>
</BusStop>
<BusStop>
<BusStopName>Mehmoodabad No.5</BusStopName>
<BusStopLat>24.854439</BusStopLat>
<BusStopLong>67.077117</BusStopLong>
</BusStop>
<BusStop>
<BusStopName>Mehmoodabad No.4</BusStopName>
<BusStopLat>24.85507</BusStopLat>
<BusStopLong>67.077292</BusStopLong>
</BusStop>
<BusStop>
<BusStopName>Mehmoodabad No.3</BusStopName>
<BusStopLat>24.854522</BusStopLat>
<BusStopLong>67.088031</BusStopLong>
</BusStop>
<BusStop>
<BusStopName>Mehmoodabad No.2</BusStopName>
<BusStopLat>24.853247</BusStopLat>
<BusStopLong>67.072081</BusStopLong>
</BusStop>
<BusStop>
<BusStopName>Mehmoodabad No.1</BusStopName>
<BusStopLat>24.852767</BusStopLat>
<BusStopLong>67.074757</BusStopLong>
</BusStop>
<BusStop>
<BusStopName>Corporation</BusStopName>
<BusStopLat>24.855537</BusStopLat>
<BusStopLong>67.00769</BusStopLong>
</BusStop>
<BusStop>
<BusStopName>Parsi Colony</BusStopName>
<BusStopLat>24.847465</BusStopLat>
<BusStopLong>67.063587</BusStopLong>
</BusStop>
<BusStop>
<BusStopName>Kalapul</BusStopName>
<BusStopLat>24.850754</BusStopLat>
<BusStopLong>67.052453</BusStopLong>
</BusStop>
<BusStop>
<BusStopName>Jinnah Hospital</BusStopName>
<BusStopLat>24.887155</BusStopLat>
<BusStopLong>67.029785</BusStopLong>
</BusStop>
<BusStop>
<BusStopName>Regent Palaz</BusStopName>
<BusStopLat>24.855611</BusStopLat>
<BusStopLong>67.038929</BusStopLong>
</BusStop>
<BusStop>
<BusStopName>Lucky Star</BusStopName>
<BusStopLat>24.861462</BusStopLat>
<BusStopLong>67.009939</BusStopLong>
</BusStop>
<BusStop>
<BusStopName>Saddar</BusStopName>
<BusStopLat>24.853185</BusStopLat>
<BusStopLong>67.016673</BusStopLong>
</BusStop>
<BusStop>
<BusStopName>Numaish</BusStopName>
<BusStopLat>24.861462</BusStopLat>
<BusStopLong>67.009939</BusStopLong>
</BusStop>
<BusStop>
<BusStopName>Gurumandir</BusStopName>
<BusStopLat>24.880809</BusStopLat>
<BusStopLong>67.039467</BusStopLong>
</BusStop>
<BusStop>
<BusStopName>Patel Para</BusStopName>
<BusStopLat>24.885131</BusStopLat>
<BusStopLong>67.036778</BusStopLong>
</BusStop>
<BusStop>
<BusStopName>Lasbela</BusStopName>
<BusStopLat>24.861462</BusStopLat>
<BusStopLong>67.009939</BusStopLong>
</BusStop>
<BusStop>
<BusStopName>Golimar</BusStopName>
<BusStopLat>24.886023</BusStopLat>
<BusStopLong>67.0129</BusStopLong>
</BusStop>
<BusStop>
<BusStopName>Petrol Pump</BusStopName>
<BusStopLat>24.935161</BusStopLat>
<BusStopLong>67.075161</BusStopLong>
</BusStop>
<BusStop>
<BusStopName>Nazimabad</BusStopName>
<BusStopLat>24.911098</BusStopLat>
<BusStopLong>67.028587</BusStopLong>
</BusStop>
<BusStop>
<BusStopName>Habib Bank</BusStopName>
<BusStopLat>24.85</BusStopLat>
<BusStopLong>67</BusStopLong>
</BusStop>
<BusStop>
<BusStopName>Valika Motrovil</BusStopName>
<BusStopLat>24.861462</BusStopLat>
<BusStopLong>67.009939</BusStopLong>
</BusStop>
<BusStop>
<BusStopName>Orangi No 4</BusStopName>
<BusStopLat>24.939295</BusStopLat>
<BusStopLong>66.995147</BusStopLong>
</BusStop>
<BusStop>
<BusStopName>Orangi No 10</BusStopName>
<BusStopLat>24.975246</BusStopLat>
<BusStopLong>66.985126</BusStopLong>
</BusStop>
<EndPoint>
<EndPointName>Faqeer Colony</EndPointName>
<EndPointLat>24.928753</EndPointLat>
<EndPointLong>66.984281</EndPointLong>
</EndPoint>

</Vehicle>