<?xml version="1.0" encoding="UTF-8"?>
<Vehicle>
<VehicleType>Bus</VehicleType>
<VehicleName>61-A</VehicleName>
<StartPoint>
<StartPointName>Pakistan Refinery</StartPointName>
<StartPointLat>24.808566</StartPointLat>
<StartPointLong>67.114899</StartPointLong>
</StartPoint>
<BusStop>
<BusStopName>Qayyumabad</BusStopName>
<BusStopLat>24.825724</BusStopLat>
<BusStopLong>67.080715</BusStopLong>
</BusStop>
<BusStop>
<BusStopName>Akhter Colony</BusStopName>
<BusStopLat>24.839346</BusStopLat>
<BusStopLong>67.074013</BusStopLong>
</BusStop>
<BusStop>
<BusStopName>Defence Mor</BusStopName>
<BusStopLat>24.861462</BusStopLat>
<BusStopLong>67.009939</BusStopLong>
</BusStop>
<BusStop>
<BusStopName>Kalapul</BusStopName>
<BusStopLat>24.850754</BusStopLat>
<BusStopLong>67.052453</BusStopLong>
</BusStop>
<BusStop>
<BusStopName>Jinnah Hospital</BusStopName>
<BusStopLat>24.887155</BusStopLat>
<BusStopLong>67.029785</BusStopLong>
</BusStop>
<BusStop>
<BusStopName>Lucky Star</BusStopName>
<BusStopLat>24.861462</BusStopLat>
<BusStopLong>67.009939</BusStopLong>
</BusStop>
<EndPoint>
<EndPointName>Saddar</EndPointName>
<EndPointLat>24.853185</EndPointLat>
<EndPointLong>67.016673</EndPointLong>
</EndPoint>

</Vehicle>