<?xml version="1.0" encoding="UTF-8"?>
<Vehicle>
<VehicleType>Bus</VehicleType>
<VehicleName>5-K</VehicleName>
<StartPoint>
<StartPointName>Surjani Town</StartPointName>
<StartPointLat>25.035399</StartPointLat>
<StartPointLong>67.069055</StartPointLong>
</StartPoint>
<BusStop>
<BusStopName>Two Minutes Chowrangi</BusStopName>
<BusStopLat>24.861462</BusStopLat>
<BusStopLong>67.009939</BusStopLong>
</BusStop>
<BusStop>
<BusStopName>Power House</BusStopName>
<BusStopLat>24.986827</BusStopLat>
<BusStopLong>67.065875</BusStopLong>
</BusStop>
<BusStop>
<BusStopName>Nagan Chowrangi</BusStopName>
<BusStopLat>24.963673</BusStopLat>
<BusStopLong>67.06837</BusStopLong>
</BusStop>
<BusStop>
<BusStopName>Buffer Zone</BusStopName>
<BusStopLat>24.958198</BusStopLat>
<BusStopLong>67.0688</BusStopLong>
</BusStop>
<BusStop>
<BusStopName>Sohrab Goth</BusStopName>
<BusStopLat>24.943902</BusStopLat>
<BusStopLong>67.084417</BusStopLong>
</BusStop>
<BusStop>
<BusStopName>Fazal Mills</BusStopName>
<BusStopLat>24.937908</BusStopLat>
<BusStopLong>67.085664</BusStopLong>
</BusStop>
<BusStop>
<BusStopName>Rashid Minhas Road</BusStopName>
<BusStopLat>24.919097</BusStopLat>
<BusStopLong>67.095842</BusStopLong>
</BusStop>
<BusStop>
<BusStopName>Drigh Road</BusStopName>
<BusStopLat>24.884633</BusStopLat>
<BusStopLong>67.129122</BusStopLong>
</BusStop>
<BusStop>
<BusStopName>Shahrah-e-Faisal</BusStopName>
<BusStopLat>24.868332</BusStopLat>
<BusStopLong>67.085078</BusStopLong>
</BusStop>
<BusStop>
<BusStopName>Star Gate</BusStopName>
<BusStopLat>24.887124</BusStopLat>
<BusStopLong>67.155791</BusStopLong>
</BusStop>
<BusStop>
<BusStopName>Malir Halt</BusStopName>
<BusStopLat>24.88478</BusStopLat>
<BusStopLong>67.175375</BusStopLong>
</BusStop>
<BusStop>
<BusStopName>Malir No 15</BusStopName>
<BusStopLat>24.885303</BusStopLat>
<BusStopLong>67.184189</BusStopLong>
</BusStop>
<BusStop>
<BusStopName>Quaidabad</BusStopName>
<BusStopLat>24.858407</BusStopLat>
<BusStopLong>67.211702</BusStopLong>
</BusStop>
<BusStop>
<BusStopName>Dawood Chowrangi</BusStopName>
<BusStopLat>24.879487</BusStopLat>
<BusStopLong>67.065318</BusStopLong>
</BusStop>
<BusStop>
<BusStopName>Landhi-89</BusStopName>
<BusStopLat>24.823347</BusStopLat>
<BusStopLong>67.182376</BusStopLong>
</BusStop>
<EndPoint>
<EndPointName>Labour Square</EndPointName>
<EndPointLat>24.832409</EndPointLat>
<EndPointLong>67.244565</EndPointLong>
</EndPoint>

</Vehicle>