<?xml version="1.0" encoding="UTF-8"?>
<Vehicle>
<VehicleType>Bus</VehicleType>
<VehicleName>11-D</VehicleName>
<StartPoint>
<StartPointName>Power House</StartPointName>
<StartPointLat>24.986827</StartPointLat>
<StartPointLong>67.065875</StartPointLong>
</StartPoint>
<BusStop>
<BusStopName>Nursery</BusStopName>
<BusStopLat>24.860307</BusStopLat>
<BusStopLong>67.06198</BusStopLong>
</BusStop>
<BusStop>
<BusStopName>Saddar</BusStopName>
<BusStopLat>24.853185</BusStopLat>
<BusStopLong>67.016673</BusStopLong>
</BusStop>
<BusStop>
<BusStopName>Tower</BusStopName>
<BusStopLat>24.876961</BusStopLat>
<BusStopLong>67.059828</BusStopLong>
</BusStop>
<BusStop>
<BusStopName>Al Noor Society</BusStopName>
<BusStopLat>24.949025</BusStopLat>
<BusStopLong>67.076991</BusStopLong>
</BusStop>
<BusStop>
<BusStopName>Water Pump</BusStopName>
<BusStopLat>24.933841</BusStopLat>
<BusStopLong>66.956125</BusStopLong>
</BusStop>
<BusStop>
<BusStopName>Karimabad</BusStopName>
<BusStopLat>24.9217</BusStopLat>
<BusStopLong>67.05835</BusStopLong>
</BusStop>
<EndPoint>
<EndPointName>Dockyard</EndPointName>
<EndPointLat>24.841648</EndPointLat>
<EndPointLong>66.976878</EndPointLong>
</EndPoint>
</Vehicle>