<?xml version="1.0" encoding="UTF-8"?>
<Vehicle>
<VehicleType>Coach</VehicleType>
<VehicleName>Adam Coach</VehicleName>
<StartPoint>
<StartPointName>Ittehad Town</StartPointName>
<StartPointLat>24.975906</StartPointLat>
<StartPointLong>66.945189</StartPointLong>
</StartPoint>
<BusStop>
<BusStopName>Orangi No 10</BusStopName>
<BusStopLat>24.975246</BusStopLat>
<BusStopLong>66.985126</BusStopLong>
</BusStop>
<BusStop>
<BusStopName>Orangi No 5</BusStopName>
<BusStopLat>24.975271</BusStopLat>
<BusStopLong>66.986496</BusStopLong>
</BusStop>
<BusStop>
<BusStopName>Banaras Chowk</BusStopName>
<BusStopLat>24.994121</BusStopLat>
<BusStopLong>66.990652</BusStopLong>
</BusStop>
<BusStop>
<BusStopName>Habib Bank</BusStopName>
<BusStopLat>24.85</BusStopLat>
<BusStopLong>67</BusStopLong>
</BusStop>
<BusStop>
<BusStopName>Nazimabad</BusStopName>
<BusStopLat>24.911098</BusStopLat>
<BusStopLong>67.028587</BusStopLong>
</BusStop>
<BusStop>
<BusStopName>Liaquatabad No 10</BusStopName>
<BusStopLat>24.863532</BusStopLat>
<BusStopLong>67.091723</BusStopLong>
</BusStop>
<BusStop>
<BusStopName>Hassan Square</BusStopName>
<BusStopLat>24.902212</BusStopLat>
<BusStopLong>67.073859</BusStopLong>
</BusStop>
<BusStop>
<BusStopName>Karsaz</BusStopName>
<BusStopLat>24.889054</BusStopLat>
<BusStopLong>67.100078</BusStopLong>
</BusStop>
<BusStop>
<BusStopName>Shahrah-e-Faisal</BusStopName>
<BusStopLat>24.868332</BusStopLat>
<BusStopLong>67.085078</BusStopLong>
</BusStop>
<BusStop>
<BusStopName>Malir Halt</BusStopName>
<BusStopLat>24.88478</BusStopLat>
<BusStopLong>67.175375</BusStopLong>
</BusStop>
<BusStop>
<BusStopName>Malir No 15</BusStopName>
<BusStopLat>24.885303</BusStopLat>
<BusStopLong>67.184189</BusStopLong>
</BusStop>
<BusStop>
<BusStopName>Quaidabad</BusStopName>
<BusStopLat>24.858407</BusStopLat>
<BusStopLong>67.211702</BusStopLong>
</BusStop>
<EndPoint>
<EndPointName>Gulshan-e-Hadeed</EndPointName>
<EndPointLat>24.869999</EndPointLat>
<EndPointLong>67.354256</EndPointLong>
</EndPoint>
</Vehicle>