<?xml version="1.0" encoding="UTF-8"?>
<Vehicle>
<VehicleType>Coach</VehicleType>
<VehicleName>Baraq Coach</VehicleName>
<StartPoint>
<StartPointName>New Karachi</StartPointName>
<StartPointLat>24.997697</StartPointLat>
<StartPointLong>67.062179</StartPointLong>
</StartPoint>
<BusStop>
<BusStopName>Saba Cinema</BusStopName>
<BusStopLat>24.861462</BusStopLat>
<BusStopLong>67.009939</BusStopLong>
</BusStop>
<BusStop>
<BusStopName>Gabol Goth</BusStopName>
<BusStopLat>24.943376</BusStopLat>
<BusStopLong>67.152582</BusStopLong>
</BusStop>
<BusStop>
<BusStopName>Sohrab Goth</BusStopName>
<BusStopLat>24.943902</BusStopLat>
<BusStopLong>67.084417</BusStopLong>
</BusStop>
<BusStop>
<BusStopName>Karimabad</BusStopName>
<BusStopLat>24.9217</BusStopLat>
<BusStopLong>67.05835</BusStopLong>
</BusStop>
<BusStop>
<BusStopName>Liaquatabad No 10</BusStopName>
<BusStopLat>24.863532</BusStopLat>
<BusStopLong>67.091723</BusStopLong>
</BusStop>
<BusStop>
<BusStopName>Petrol Pump</BusStopName>
<BusStopLat>24.935161</BusStopLat>
<BusStopLong>67.075161</BusStopLong>
</BusStop>
<BusStop>
<BusStopName>Nazimabad</BusStopName>
<BusStopLat>24.911098</BusStopLat>
<BusStopLong>67.028587</BusStopLong>
</BusStop>
<BusStop>
<BusStopName>Habib Bank</BusStopName>
<BusStopLat>24.85</BusStopLat>
<BusStopLong>67</BusStopLong>
</BusStop>
<BusStop>
<BusStopName>Shershah</BusStopName>
<BusStopLat>24.883591</BusStopLat>
<BusStopLong>66.988376</BusStopLong>
</BusStop>
<BusStop>
<BusStopName>Gulbai</BusStopName>
<BusStopLat>24.876422</BusStopLat>
<BusStopLong>66.967899</BusStopLong>
</BusStop>
<BusStop>
<BusStopName>Mari Pur</BusStopName>
<BusStopLat>24.86803</BusStopLat>
<BusStopLong>66.918385</BusStopLong>
</BusStop>
<BusStop>
<BusStopName>Wazir Mansion</BusStopName>
<BusStopLat>24.850833</BusStopLat>
<BusStopLong>66.9975</BusStopLong>
</BusStop>
<BusStop>
<BusStopName>ICI Bridge</BusStopName>
<BusStopLat>24.861462</BusStopLat>
<BusStopLong>67.009939</BusStopLong>
</BusStop>
<EndPoint>
<EndPointName>Fisheries</EndPointName>
<EndPointLat>24.861462</EndPointLat>
<EndPointLong>67.009939</EndPointLong>
</EndPoint>

</Vehicle>