<?xml version="1.0" encoding="UTF-8"?>
<Vehicle>
<VehicleType>Coach</VehicleType>
<VehicleName>Bilal Coach</VehicleName>
<StartPoint>
<StartPointName>Ittehad Town</StartPointName>
<StartPointLat>24.975906</StartPointLat>
<StartPointLong>66.945189</StartPointLong>
</StartPoint>
<BusStop>
<BusStopName>Fareed Colony</BusStopName>
<BusStopLat>24.933577</BusStopLat>
<BusStopLong>66.981675</BusStopLong>
</BusStop>
<BusStop>
<BusStopName>Mominabad</BusStopName>
<BusStopLat>24.928852</BusStopLat>
<BusStopLong>66.991355</BusStopLong>
</BusStop>
<BusStop>
<BusStopName>Badar Hotel</BusStopName>
<BusStopLat>24.847422</BusStopLat>
<BusStopLong>67.024364</BusStopLong>
</BusStop>
<BusStop>
<BusStopName>Orangi No 5</BusStopName>
<BusStopLat>24.975271</BusStopLat>
<BusStopLong>66.986496</BusStopLong>
</BusStop>
<BusStop>
<BusStopName>Metro</BusStopName>
<BusStopLat>24.83278</BusStopLat>
<BusStopLong>67.034571</BusStopLong>
</BusStop>
<BusStop>
<BusStopName>Banaras Chowk</BusStopName>
<BusStopLat>24.994121</BusStopLat>
<BusStopLong>66.990652</BusStopLong>
</BusStop>
<BusStop>
<BusStopName>Habib Bank</BusStopName>
<BusStopLat>24.85</BusStopLat>
<BusStopLong>67</BusStopLong>
</BusStop>
<BusStop>
<BusStopName>Nazimabad</BusStopName>
<BusStopLat>24.911098</BusStopLat>
<BusStopLong>67.028587</BusStopLong>
</BusStop>
<BusStop>
<BusStopName>Petrol Pump</BusStopName>
<BusStopLat>24.935161</BusStopLat>
<BusStopLong>67.075161</BusStopLong>
</BusStop>
<BusStop>
<BusStopName>Liaquatabad No 10</BusStopName>
<BusStopLat>24.863532</BusStopLat>
<BusStopLong>67.091723</BusStopLong>
</BusStop>
<BusStop>
<BusStopName>Hassan Square</BusStopName>
<BusStopLat>24.902212</BusStopLat>
<BusStopLong>67.073859</BusStopLong>
</BusStop>
<BusStop>
<BusStopName>New Town</BusStopName>
<BusStopLat>25.056136</BusStopLat>
<BusStopLong>67.158544</BusStopLong>
</BusStop>
<BusStop>
<BusStopName>Jail Chowrangi</BusStopName>
<BusStopLat>24.885244</BusStopLat>
<BusStopLong>67.056</BusStopLong>
</BusStop>
<BusStop>
<BusStopName>Shaheed-e-Millat Road</BusStopName>
<BusStopLat>24.882855</BusStopLat>
<BusStopLong>67.059622</BusStopLong>
</BusStop>
<BusStop>
<BusStopName>Baloch Colony</BusStopName>
<BusStopLat>24.867255</BusStopLat>
<BusStopLong>67.082744</BusStopLong>
</BusStop>
<BusStop>
<BusStopName>Qayyumabad</BusStopName>
<BusStopLat>24.825724</BusStopLat>
<BusStopLong>67.080715</BusStopLong>
</BusStop>
<BusStop>
<BusStopName>Korangi Industrial Area</BusStopName>
<BusStopLat>24.849999</BusStopLat>
<BusStopLong>67.135825</BusStopLong>
</BusStop>
<BusStop>
<BusStopName>Chamra Chowrangi</BusStopName>
<BusStopLat>24.861462</BusStopLat>
<BusStopLong>67.009939</BusStopLong>
</BusStop>
<BusStop>
<BusStopName>Singer Chowrangi</BusStopName>
<BusStopLat>24.846697</BusStopLat>
<BusStopLong>67.159376</BusStopLong>
</BusStop>
<BusStop>
<BusStopName>Sharafi Goth</BusStopName>
<BusStopLat>24.856153</BusStopLat>
<BusStopLong>67.171946</BusStopLong>
</BusStop>
<BusStop>
<BusStopName>Mansehra Colony</BusStopName>
<BusStopLat>24.856889</BusStopLat>
<BusStopLong>67.197799</BusStopLong>
</BusStop>
<BusStop>
<BusStopName>Dawood Chowrangi</BusStopName>
<BusStopLat>24.879487</BusStopLat>
<BusStopLong>67.065318</BusStopLong>
</BusStop>
<BusStop>
<BusStopName>SESSI Hospital</BusStopName>
<BusStopLat>24.861462</BusStopLat>
<BusStopLong>67.009939</BusStopLong>
</BusStop>
<BusStop>
<BusStopName>Labour Square</BusStopName>
<BusStopLat>24.832409</BusStopLat>
<BusStopLong>67.244565</BusStopLong>
</BusStop>
<EndPoint>
<EndPointName>PMTF Colony</EndPointName>
<EndPointLat>24.861462</EndPointLat>
<EndPointLong>67.009939</EndPointLong>
</EndPoint>

</Vehicle>