<?xml version="1.0" encoding="UTF-8"?>
<Vehicle>
<VehicleType>Coach</VehicleType>
<VehicleName>Qalandari Coach</VehicleName>
<StartPoint>
<StartPointName>Surjani Town</StartPointName>
<StartPointLat>25.035399</StartPointLat>
<StartPointLong>67.069055</StartPointLong>
</StartPoint>
<BusStop>
<BusStopName>Kala School</BusStopName>
<BusStopLat>25.000026</BusStopLat>
<BusStopLong>67.069472</BusStopLong>
</BusStop>
<BusStop>
<BusStopName>UP Society</BusStopName>
<BusStopLat>24.972278</BusStopLat>
<BusStopLong>67.067287</BusStopLong>
</BusStop>
<BusStop>
<BusStopName>Nagan Chowrangi</BusStopName>
<BusStopLat>24.963673</BusStopLat>
<BusStopLong>67.06837</BusStopLong>
</BusStop>
<BusStop>
<BusStopName>Hyderi</BusStopName>
<BusStopLat>24.793289</BusStopLat>
<BusStopLong>67.140293</BusStopLong>
</BusStop>
<BusStop>
<BusStopName>Board Office</BusStopName>
<BusStopLat>24.926352</BusStopLat>
<BusStopLong>67.032823</BusStopLong>
</BusStop>
<BusStop>
<BusStopName>Lasbela</BusStopName>
<BusStopLat>24.861462</BusStopLat>
<BusStopLong>67.009939</BusStopLong>
</BusStop>
<BusStop>
<BusStopName>Gurumandir</BusStopName>
<BusStopLat>24.880809</BusStopLat>
<BusStopLong>67.039467</BusStopLong>
</BusStop>
<BusStop>
<BusStopName>M.A Jinnah Road</BusStopName>
<BusStopLat>24.860787</BusStopLat>
<BusStopLong>67.017802</BusStopLong>
</BusStop>
<BusStop>
<BusStopName>Tower</BusStopName>
<BusStopLat>24.876961</BusStopLat>
<BusStopLong>67.059828</BusStopLong>
</BusStop>
<EndPoint>
<EndPointName>Fisheries</EndPointName>
<EndPointLat>24.861462</EndPointLat>
<EndPointLong>67.009939</EndPointLong>
</EndPoint>

</Vehicle>