<?xml version="1.0" encoding="UTF-8"?>
<Vehicle>
<VehicleType>Bus</VehicleType>
<VehicleName>19-B</VehicleName>
<StartPoint>
<StartPointName>Clifton Bridge</StartPointName>
<StartPointLat>24.840392</StartPointLat>
<StartPointLong>67.032685</StartPointLong>
</StartPoint>
<BusStop>
<BusStopName>Cantt Station</BusStopName>
<BusStopLat>24.951982</BusStopLat>
<BusStopLong>67.226224</BusStopLong>
</BusStop>
<BusStop>
<BusStopName>Frere Road</BusStopName>
<BusStopLat>24.856559</BusStopLat>
<BusStopLong>67.015851</BusStopLong>
</BusStop>
<BusStop>
<BusStopName>Burns Road</BusStopName>
<BusStopLat>24.861462</BusStopLat>
<BusStopLong>67.009939</BusStopLong>
</BusStop>
<BusStop>
<BusStopName>Mcleod Road</BusStopName>
<BusStopLat>24.861462</BusStopLat>
<BusStopLong>67.009939</BusStopLong>
</BusStop>
<BusStop>
<BusStopName>Tower</BusStopName>
<BusStopLat>24.876961</BusStopLat>
<BusStopLong>67.059828</BusStopLong>
</BusStop>
<EndPoint>
<EndPointName>Keamari</EndPointName>
<EndPointLat>24.82269</EndPointLat>
<EndPointLong>66.983908</EndPointLong>
</EndPoint>
</Vehicle>